index,name,address,description,latitude,longitude,level
0,도담삼봉,충청북도 단양군 매포읍 삼봉로 644-13,"들쭉날쭉한 암석 3개가 강물 위로 우뚝 솟아있는 명소로, 분수 쇼와 스피드보트를 즐길 수 있습니다.",37.0000888,128.343826,3
2,수양개빛터널,충청북도 단양군 적성면 수양개유적로 390,",",36.9602399,128.3323156,3
5,온달관광지,충청북도 단양군 영춘면 하리,",",37.06278325,128.4913038987783,3
7,고수동굴,충청북도 단양군 단양읍 고수동굴길 8,계단을 너머 좁은 통로를 지나 그림 같은 산책로가 펼쳐지는 자연 동굴입니다.,36.9887326,128.3816317,3
8,다리안폭포,충청북도 단양군 단양읍 천동리,",",36.9629386,128.423248,3
10,단양 천동동굴,충청북도 단양군 단양읍 천동리 201,",",36.9709251,128.4221875,3
