index,name,address,description,latitude,longitude,level
0,수리사,경기도 군포시 속달동 329,",",37.3540156,126.89680866750491,4
1,반월호수공원,경기도 군포시 둔대동 458-2,",",37.32402275,126.88931648099827,4
2,당정근린공원,경기도 군포시 당정동,",",37.34389295,126.9470879535246,4
3,능안공원,경기도 군포시 산본동,",",37.48828425,127.14414609981586,4
8,초막골생태공원,경기도 군포시 산본동,",",37.3500391,126.91862773393764,4
9,철쭉공원,경기도 군포시 산본동 1153,",",37.3544734,126.9260405,4
12,누리천문대,경기도 군포시 산본동 산44-1,",",37.3302539,126.9156001,4
